City_ID,City,Lat,Lng,Max Temp,Humidity,Cloudiness,Wind Speed,Country,Date
0,severo-kurilsk,50.68,156.12,37.22,77,100,14.54,RU,1604881196
1,hermanus,-34.42,19.23,51.01,90,43,11.12,ZA,1604881196
2,muros,42.78,-9.06,55.4,93,90,12.75,ES,1604881196
3,mahebourg,-20.41,57.7,73.4,88,40,14.56,MU,1604881196
4,puerto ayora,-0.74,-90.35,69.01,84,11,7.0,EC,1604881196
5,ushuaia,-54.8,-68.3,44.6,78,40,26.4,AR,1604881196
6,rikitea,-23.12,-134.97,72.95,77,92,16.42,PF,1604881196
7,guaratinga,-16.57,-39.57,77.0,78,40,9.17,BR,1604881196
8,busselton,-33.65,115.33,63.0,82,97,14.65,AU,1604881197
9,hithadhoo,-0.6,73.08,83.84,72,91,8.01,MV,1604881197
10,dingle,11.0,122.67,80.24,82,24,2.15,PH,1604881197
11,hobart,-42.88,147.33,71.01,48,5,5.82,AU,1604881063
12,monte alegre,-2.01,-54.07,83.57,60,38,6.46,BR,1604881197
13,cape town,-33.93,18.42,55.99,66,40,6.93,ZA,1604880982
14,granard,53.77,-7.5,49.8,97,37,7.99,IE,1604881197
15,chuy,-33.7,-53.46,59.34,89,8,6.91,UY,1604881198
16,camacha,33.08,-16.33,62.6,82,40,4.7,PT,1604881198
17,havre-saint-pierre,50.23,-63.6,19.4,92,40,5.44,CA,1604881198
18,punta arenas,-53.15,-70.92,44.6,70,0,18.34,CL,1604881198
19,montrose,38.42,-108.27,46.4,28,90,8.05,US,1604881126
20,nikolskoye,59.7,30.79,33.01,91,40,4.47,RU,1604881198
21,alofi,-19.06,-169.92,80.6,74,75,9.17,NU,1604881198
22,cap-aux-meules,47.38,-61.86,33.8,69,28,4.7,CA,1604881198
23,ponta do sol,32.67,-17.1,62.6,59,20,4.7,PT,1604881198
24,omboue,-1.57,9.26,75.74,92,100,6.33,GA,1604881199
25,turbat,26.0,63.04,63.37,55,0,1.54,PK,1604881199
26,havelock,34.88,-76.9,68.0,88,40,10.29,US,1604881006
27,kopervik,59.28,5.31,48.99,93,100,8.05,NO,1604881199
28,kahului,20.89,-156.47,89.6,46,20,20.8,US,1604881001
29,tuktoyaktuk,69.45,-133.04,8.6,92,40,2.24,CA,1604881199
30,coihaique,-45.58,-72.07,68.0,40,0,5.82,CL,1604881199
31,albany,42.6,-73.97,57.0,60,0,1.97,US,1604881199
32,mount isa,-20.73,139.5,95.0,10,0,6.93,AU,1604881199
33,avarua,-21.21,-159.78,78.8,74,85,4.7,CK,1604881200
34,moba,33.23,105.02,37.74,92,0,1.41,CN,1604881200
35,pevek,69.7,170.31,17.24,94,99,3.38,RU,1604881200
36,sao joao da barra,-21.64,-41.05,75.24,92,50,11.07,BR,1604881200
37,qaanaaq,77.48,-69.36,-7.82,71,58,10.45,GL,1604881200
38,dikson,73.51,80.55,1.98,94,96,12.21,RU,1604881200
39,longyearbyen,78.22,15.64,26.6,79,40,3.36,SJ,1604881200
40,keetmanshoop,-26.58,18.13,57.2,67,8,17.22,NA,1604881200
41,aojiang,22.94,116.04,73.0,48,4,1.99,CN,1604881049
42,atuona,-9.8,-139.03,77.68,67,55,12.64,PF,1604881201
43,bluff,-46.6,168.33,55.99,71,91,10.0,NZ,1604881201
44,shostka,51.86,33.47,43.48,85,95,7.18,UA,1604881201
45,cherskiy,68.75,161.3,2.12,94,96,2.55,RU,1604881201
46,maturin,9.75,-63.18,76.21,94,84,7.0,VE,1604881201
47,petropavlovsk-kamchatskiy,53.05,158.65,21.2,73,24,8.95,RU,1604881201
48,haines junction,60.75,-137.51,37.4,59,100,13.87,CA,1604881202
49,sitka,57.05,-135.33,42.8,75,90,21.92,US,1604881202
50,north bend,43.41,-124.22,48.99,49,90,9.17,US,1604881202
51,hilo,19.73,-155.09,86.0,55,90,6.93,US,1604881038
52,missungwi,-2.85,33.08,72.41,70,97,1.88,TZ,1604881202
53,tiksi,71.69,128.87,-9.38,90,34,3.71,RU,1604881203
54,port elizabeth,-33.92,25.57,57.2,93,40,16.11,ZA,1604881203
55,cayenne,4.93,-52.33,80.6,88,0,8.05,GF,1604881203
56,tiznit,29.58,-9.5,60.84,69,0,0.85,MA,1604881203
57,faya,18.39,42.45,62.6,51,0,3.36,SA,1604881203
58,carnarvon,-24.87,113.63,71.6,64,90,10.29,AU,1604881203
59,yellowknife,62.46,-114.35,26.6,86,75,12.75,CA,1604881204
60,mataura,-46.19,168.86,55.99,71,99,10.0,NZ,1604881204
61,la palma,33.85,-118.05,60.01,51,40,19.46,US,1604881204
62,lata,40.16,-8.33,55.99,95,0,1.99,PT,1604881204
63,georgetown,5.41,100.34,77.0,88,40,3.36,MY,1604881204
64,najran,17.49,44.13,64.4,34,0,2.21,SA,1604881204
65,jamestown,42.1,-79.24,62.6,45,1,5.82,US,1604880992
66,kapaa,22.08,-159.32,80.6,74,75,11.41,US,1604881205
67,half moon bay,37.46,-122.43,51.01,53,40,19.46,US,1604881012
68,sault sainte marie,46.52,-84.33,62.6,67,75,6.93,CA,1604881177
69,saskylakh,71.92,114.08,-7.91,86,13,14.38,RU,1604881205
70,sakakah,29.97,40.21,66.2,52,40,12.75,SA,1604881205
71,bilma,18.69,12.92,68.85,36,0,15.9,NE,1604881205
72,port alfred,-33.59,26.89,63.63,81,96,13.22,ZA,1604881205
73,bilibino,68.05,166.44,-1.98,89,100,1.63,RU,1604881206
74,ilulissat,69.22,-51.1,14.0,61,100,11.41,GL,1604881206
75,sao filipe,14.9,-24.5,79.79,74,7,9.95,CV,1604881206
76,karibib,-21.93,15.83,59.85,63,9,5.23,NA,1604881206
77,rapid city,44.08,-103.23,35.01,69,1,17.22,US,1604880929
78,arraial do cabo,-22.97,-42.03,73.4,94,75,8.05,BR,1604881206
79,seymour,38.96,-85.89,68.0,64,0,6.33,US,1604881206
80,east london,-33.02,27.91,67.19,76,96,5.53,ZA,1604881159
81,kodiak,57.79,-152.41,46.4,49,20,20.8,US,1604880982
82,harrisonburg,38.45,-78.87,61.0,100,1,3.36,US,1604881144
83,caravelas,-17.71,-39.25,73.99,87,100,5.7,BR,1604881207
84,kyabe,9.45,18.94,80.04,45,32,4.0,TD,1604881207
85,khatanga,71.97,102.5,9.41,91,100,17.87,RU,1604881207
86,tasiilaq,65.61,-37.64,31.21,98,100,32.75,GL,1604881207
87,vaini,-21.2,-175.2,80.6,74,20,8.05,TO,1604881207
88,rutland,43.62,-73.02,53.6,76,1,9.17,US,1604881208
89,goderich,43.75,-81.72,60.8,63,0,5.82,CA,1604881208
90,barrow,71.29,-156.79,15.8,85,90,24.16,US,1604881023
91,lazaro cardenas,17.96,-102.2,80.13,79,56,6.24,MX,1604881208
92,urengoy,65.97,78.37,21.18,98,86,8.01,RU,1604881208
93,ust-nera,64.57,143.2,-13.41,80,28,2.13,RU,1604881208
94,honiara,-9.43,159.95,87.8,70,20,4.7,SB,1604881208
95,wanning,18.8,110.4,74.37,78,81,15.77,CN,1604881209
96,pisco,-13.7,-76.22,64.4,82,0,20.8,PE,1604881209
97,saint-philippe,-21.36,55.77,73.4,73,0,4.7,RE,1604881209
98,ribeira grande,38.52,-28.7,61.18,59,56,8.99,PT,1604881209
99,acapulco,16.86,-99.89,84.2,74,40,6.93,MX,1604881209
100,copiapo,-27.37,-70.33,60.8,63,0,11.41,CL,1604881209
101,batagay-alyta,67.8,130.41,-15.9,80,0,1.57,RU,1604881209
102,viedma,-40.81,-63.0,62.01,87,46,1.01,AR,1604881209
103,nador,35.17,-2.93,57.2,87,0,2.24,MA,1604881210
104,jalu,29.03,21.55,59.86,71,38,9.78,LY,1604881210
105,airai,-8.93,125.41,75.67,40,37,4.9,TL,1604881190
106,yankton,42.87,-97.4,71.6,53,90,13.87,US,1604881191
107,praya,14.92,-23.51,78.8,69,0,14.99,CV,1604881210
108,thompson,55.74,-97.86,10.4,85,90,12.75,CA,1604881210
109,katsuura,35.13,140.3,61.0,37,96,5.99,JP,1604881210
110,makakilo city,21.35,-158.09,89.6,46,75,8.05,US,1604881210
111,luderitz,-26.65,15.16,59.99,76,0,20.94,NA,1604881210
112,husavik,66.04,-17.34,30.2,80,0,6.93,IS,1604881211
113,chokurdakh,70.63,147.92,-11.76,91,100,2.89,RU,1604881211
114,brae,60.4,-1.35,51.8,93,100,16.11,GB,1604881211
115,iqaluit,63.75,-68.51,19.4,79,90,13.87,CA,1604880944
116,cascais,38.7,-9.42,61.0,96,1,5.99,PT,1604881211
117,kaitangata,-46.28,169.85,55.0,78,96,11.99,NZ,1604881211
118,torbay,47.67,-52.73,37.0,51,90,12.75,CA,1604881211
119,sinnamary,5.38,-52.95,79.57,82,5,12.1,GF,1604881211
120,kruisfontein,-34.0,24.73,55.99,95,100,4.0,ZA,1604881212
121,ambovombe,-25.17,46.08,70.14,82,0,5.95,MG,1604881212
122,guerrero negro,27.98,-114.06,66.11,54,12,14.76,MX,1604881212
123,clyde river,70.47,-68.59,1.4,70,1,17.22,CA,1604881212
124,faanui,-16.48,-151.75,79.0,79,43,15.59,PF,1604881212
125,killybegs,54.63,-8.45,54.0,94,93,11.01,IE,1604881212
126,mogadishu,2.04,45.34,78.67,81,24,9.24,SO,1604881212
127,okato,-39.2,173.88,55.99,59,99,18.01,NZ,1604881212
128,mmathubudukwane,-24.6,26.43,68.0,82,75,5.82,BW,1604881213
129,vardo,70.37,31.11,30.2,80,40,9.17,NO,1604881213
130,umkomaas,-30.21,30.8,72.0,92,90,5.01,ZA,1604881213
131,hami,42.8,93.45,33.19,76,0,3.87,CN,1604881213
132,ancud,-41.87,-73.82,64.4,52,3,13.87,CL,1604881213
133,saldanha,-33.01,17.94,53.6,81,8,8.05,ZA,1604881213
134,trindade,-16.65,-49.49,80.6,61,20,3.36,BR,1604881213
135,punta alta,-38.88,-62.07,70.83,49,94,14.41,AR,1604881213
136,ginir,7.13,40.7,56.12,91,55,2.98,ET,1604881214
137,mazamari,-11.33,-74.53,79.07,47,46,2.24,PE,1604881214
138,souillac,-20.52,57.52,73.4,88,40,12.03,MU,1604881214
139,newton,42.34,-71.21,57.99,67,0,10.29,US,1604881214
140,rodrigues alves,-7.74,-72.65,78.53,74,62,3.36,BR,1604881214
141,touros,-5.2,-35.46,77.0,88,40,4.7,BR,1604881214
142,deputatskiy,69.3,139.9,-16.33,90,81,3.0,RU,1604881214
143,pangody,65.85,74.49,18.0,98,82,7.61,RU,1604881214
144,dibulla,11.27,-73.31,77.95,84,97,4.07,CO,1604881214
145,mehamn,71.04,27.85,34.29,88,98,7.43,NO,1604881215
146,luanda,-8.84,13.23,78.8,83,75,6.93,AO,1604881197
147,kralendijk,12.15,-68.27,84.2,79,20,4.7,BQ,1604881215
148,avera,33.19,-82.53,69.8,71,40,3.36,US,1604881215
149,kindu,-2.95,25.95,70.5,96,100,1.39,CD,1604880966
150,fukue,32.69,128.84,55.4,62,40,14.99,JP,1604881215
151,ternate,0.8,127.4,82.4,72,100,5.66,ID,1604881215
152,aklavik,68.22,-135.01,19.4,79,100,5.82,CA,1604881216
153,saint-augustin,51.23,-58.65,28.33,77,55,8.88,CA,1604881216
154,bredasdorp,-34.53,20.04,53.6,81,6,8.05,ZA,1604881216
155,dolores,-36.31,-57.68,57.06,92,64,7.99,AR,1604881094
156,puerto escondido,15.85,-97.07,86.0,66,40,6.93,MX,1604881143
157,palmer,42.16,-72.33,55.0,76,1,0.83,US,1604881216
158,nyurba,63.28,118.33,-1.17,90,39,4.97,RU,1604881216
159,kerema,-7.96,145.78,84.36,72,98,8.81,PG,1604881216
160,butaritari,3.07,172.79,81.61,65,49,7.76,KI,1604881216
161,bethel,41.37,-73.41,60.01,66,1,2.06,US,1604881217
162,nha trang,12.25,109.18,77.0,88,75,12.75,VN,1604881217
163,castelo do piaui,-5.32,-41.55,86.61,35,23,4.34,BR,1604881217
164,bauchi,10.5,10.0,71.33,32,21,4.32,NG,1604881217
165,bambous virieux,-20.34,57.76,73.4,88,40,14.52,MU,1604881217
166,la trinidad,16.45,120.59,67.8,93,98,2.95,PH,1604881217
167,hobyo,5.35,48.53,80.08,82,70,12.84,SO,1604881217
168,nokaneng,-19.67,22.27,78.06,45,100,3.89,BW,1604881218
169,havoysund,71.0,24.66,37.4,93,75,29.97,NO,1604881218
170,beringovskiy,63.05,179.32,19.42,91,11,8.52,RU,1604881218
171,victoria,22.29,114.16,73.99,44,61,1.01,HK,1604880986
172,tuatapere,-46.13,167.68,55.99,73,97,7.0,NZ,1604881218
173,taonan,45.33,122.78,22.84,78,4,5.37,CN,1604881218
174,sovetskiy,61.36,63.58,29.1,98,100,5.39,RU,1604881146
175,ahuimanu,21.44,-157.84,87.8,54,75,13.87,US,1604881218
176,sarangpur,23.57,76.47,60.57,41,0,0.98,IN,1604881218
177,praia,14.92,-23.51,78.8,69,0,14.99,CV,1604881219
178,nabire,-3.37,135.48,83.95,75,97,0.36,ID,1604881219
179,onalaska,43.88,-91.24,70.0,60,1,12.75,US,1604881124
180,traverse city,44.76,-85.62,66.2,68,75,3.36,US,1604881219
181,batagay,67.63,134.63,-28.32,82,5,2.59,RU,1604881219
182,rognan,67.1,15.39,43.0,91,99,5.99,NO,1604881219
183,carutapera,-1.2,-46.02,78.78,82,25,6.49,BR,1604881219
184,grindavik,63.84,-22.43,41.0,86,75,14.99,IS,1604881220
185,morondava,-20.28,44.28,79.88,81,22,7.85,MG,1604881220
186,road town,18.42,-64.62,78.8,88,40,9.17,VG,1604881092
187,kathu,7.92,98.33,75.2,100,75,3.36,TH,1604881220
188,sydney,-33.87,151.21,66.0,67,75,3.36,AU,1604880992
189,itaituba,-4.28,-55.98,77.94,88,98,3.11,BR,1604881220
190,key largo,25.09,-80.45,78.01,74,100,18.01,US,1604881220
191,srednekolymsk,67.45,153.68,-5.13,91,93,5.61,RU,1604881220
192,altamont,42.21,-121.74,35.6,43,20,3.36,US,1604881220
193,charters towers,-20.1,146.27,81.75,45,73,17.29,AU,1604881220
194,leningradskiy,69.38,178.42,19.81,95,100,5.1,RU,1604881221
195,castro,-24.79,-50.01,68.72,58,59,6.62,BR,1604881221
196,henties bay,-22.12,14.28,59.0,91,50,12.12,NA,1604881221
197,ostrov,57.34,28.35,32.0,89,0,6.71,RU,1604881221
198,lebu,-37.62,-73.65,52.63,90,0,19.44,CL,1604881221
199,wakkanai,45.41,141.67,37.4,64,75,9.17,JP,1604881221
200,taoudenni,22.68,-3.98,79.86,16,72,9.1,ML,1604881221
201,zhifang,30.35,114.32,46.4,93,0,3.91,CN,1604881221
202,fukumitsu,36.55,136.87,48.99,76,75,5.82,JP,1604881222
203,mansa,29.98,75.38,60.94,29,0,2.64,IN,1604881222
204,hofn,64.25,-15.21,39.83,74,98,12.59,IS,1604881222
205,san quintin,30.48,-115.95,62.82,63,57,18.66,MX,1604881222
206,pandan,14.05,124.17,81.99,82,100,4.97,PH,1604881222
207,slave lake,55.28,-114.77,23.0,73,1,8.05,CA,1604881222
208,la asuncion,11.03,-63.86,86.0,70,51,6.93,VE,1604881222
209,imbituba,-28.24,-48.67,71.6,83,75,4.7,BR,1604881130
210,esmeraldas,-19.76,-44.31,78.8,57,40,8.05,BR,1604881223
211,talnakh,69.49,88.4,24.8,92,40,17.9,RU,1604881223
212,roebourne,-20.78,117.13,81.0,36,0,9.31,AU,1604881223
213,uruzgan,32.83,66.0,39.96,57,63,3.18,AF,1604881223
214,zhangye,38.93,100.45,38.07,51,0,4.21,CN,1604881223
215,sitrah,26.15,50.62,78.8,83,5,4.7,BH,1604881223
216,thanh hoa,19.8,105.77,67.62,68,0,9.04,VN,1604881223
217,pionerskiy,54.95,20.23,46.99,93,90,4.47,RU,1604881223
218,barahona,18.21,-71.1,76.14,87,100,3.06,DO,1604880929
219,kenai,60.55,-151.26,35.6,100,90,6.93,US,1604881223
220,lavrentiya,65.58,-171.0,27.64,94,73,5.7,RU,1604881224
221,isangel,-19.55,169.27,78.8,83,75,5.82,VU,1604881224
222,banda aceh,5.56,95.32,79.0,79,94,1.5,ID,1604881224
223,okuchi,32.07,130.62,55.0,76,20,8.05,JP,1604881224
224,gorontalo,0.54,123.06,82.53,67,34,5.26,ID,1604881206
225,hilton head island,32.22,-80.75,73.0,94,90,12.75,US,1604881168
226,lom sak,16.78,101.24,68.0,94,0,2.24,TH,1604881224
227,bambanglipuro,-7.95,110.28,81.14,77,84,6.33,ID,1604881224
228,irece,-11.3,-41.86,74.1,67,0,9.73,BR,1604881225
229,kiama,-34.68,150.87,70.0,58,86,7.27,AU,1604881225
230,portland,45.52,-122.68,46.0,65,1,6.93,US,1604881130
231,dillon,34.42,-79.37,70.0,82,40,4.7,US,1604881225
232,izumo,35.37,132.77,51.8,87,75,5.82,JP,1604881225
233,songea,-10.68,35.65,66.04,90,77,8.03,TZ,1604881225
234,cochrane,51.18,-114.47,17.6,67,90,17.22,CA,1604881225
235,flagstaff,35.2,-111.65,33.01,86,90,12.75,US,1604881225
236,atar,20.52,-13.05,84.92,15,68,5.82,MR,1604881225
237,sarankhola,22.31,89.79,64.2,86,0,4.29,BD,1604881225
238,pacific grove,36.62,-121.92,54.0,58,75,18.34,US,1604881103
239,pacifica,37.61,-122.49,52.0,61,75,12.75,US,1604881226
240,wamba,8.93,8.6,73.96,42,92,3.91,NG,1604881226
241,upernavik,72.79,-56.15,-4.97,77,0,10.31,GL,1604881226
242,udachnyy,66.42,112.4,1.4,84,90,8.95,RU,1604881226
243,hambantota,6.12,81.12,78.84,81,0,5.14,LK,1604881226
244,trinidad,-14.83,-64.9,84.2,70,26,9.17,BO,1604881226
245,sabang,5.89,95.32,80.91,75,100,2.08,ID,1604881226
246,codrington,-38.27,141.97,71.98,68,60,8.61,AU,1604881227
247,woodward,36.43,-99.39,68.0,63,1,16.11,US,1604881227
248,mayo,38.89,-76.51,59.0,100,1,2.44,US,1604881227
249,vanavara,60.34,102.28,31.5,97,96,7.45,RU,1604881227
250,meulaboh,4.14,96.13,76.59,86,98,2.86,ID,1604881227
251,comodoro rivadavia,-45.87,-67.5,69.8,43,20,6.93,AR,1604881227
252,griffith,41.53,-87.42,71.6,68,75,6.93,US,1604881227
253,naigarhi,24.78,81.78,61.23,34,0,5.17,IN,1604881228
254,caldwell,43.66,-116.69,33.01,81,90,12.75,US,1604881107
255,lejanias,3.53,-74.02,72.82,77,98,3.38,CO,1604881228
256,lubango,-14.92,13.49,65.39,45,28,1.97,AO,1604881228
257,new norfolk,-42.78,147.06,71.01,43,4,1.01,AU,1604881228
258,port hardy,50.7,-127.42,48.2,56,20,3.53,CA,1604881228
259,chippewa falls,44.94,-91.39,69.01,68,77,5.99,US,1604881087
260,richards bay,-28.78,32.04,74.08,86,84,14.34,ZA,1604881228
261,maniitsoq,65.42,-52.9,16.72,79,23,20.02,GL,1604881229
262,coahuayana,18.73,-103.68,80.6,65,5,5.82,MX,1604881229
263,opuwo,-18.06,13.84,65.14,49,4,3.89,NA,1604881229
264,san cristobal,7.77,-72.22,68.5,91,75,0.87,VE,1604881229
265,sept-iles,50.2,-66.38,30.99,74,90,3.36,CA,1604881229
266,kavieng,-2.57,150.8,84.07,67,87,2.21,PG,1604881229
267,male,4.17,73.51,80.6,88,75,4.7,MV,1604880957
268,beipiao,41.79,120.78,33.17,70,0,1.77,CN,1604881230
269,yarkovo,57.4,67.08,34.23,89,100,15.75,RU,1604881230
270,oskemen,49.96,82.61,48.2,57,90,20.13,KZ,1604881230
271,matay,28.42,30.78,63.32,74,70,5.5,EG,1604881230
272,byron bay,-28.65,153.62,68.0,64,90,14.99,AU,1604881203
273,jiuquan,39.74,98.52,32.72,62,0,5.44,CN,1604881230
274,lasa,46.62,10.7,37.4,54,5,6.93,IT,1604881230
275,kapuskasing,49.42,-82.43,50.0,81,81,6.93,CA,1604881230
276,mount gambier,-37.83,140.77,73.4,46,84,13.87,AU,1604881222
277,saravan,39.72,45.65,39.2,74,0,9.17,AM,1604881231
278,vanimo,-2.67,141.3,85.17,66,83,4.38,PG,1604881231
279,ossora,59.24,163.07,23.49,85,3,8.88,RU,1604881231
280,bonthe,7.53,-12.51,77.83,87,63,3.33,SL,1604881231
281,namibe,-15.2,12.15,69.31,74,10,7.25,AO,1604881231
282,wonthaggi,-38.6,145.59,78.01,58,0,1.99,AU,1604881231
283,sao felix do xingu,-6.64,-51.99,73.98,94,48,2.42,BR,1604881231
284,namatanai,-3.67,152.43,84.49,70,76,0.49,PG,1604881231
285,bosobolo,4.18,19.9,71.64,89,89,0.81,CD,1604881232
286,dzaoudzi,-12.79,45.27,80.6,74,75,4.7,YT,1604881232
287,volterra,43.4,10.86,55.0,81,0,1.07,IT,1604881232
288,jiayuguan,39.82,98.3,34.84,55,0,8.88,CN,1604881232
289,chipinge,-20.19,32.62,68.77,65,44,4.94,ZW,1604881232
290,khasan,42.43,130.64,34.45,70,29,15.7,RU,1604881232
291,rocha,-34.48,-54.33,55.11,92,3,4.21,UY,1604881232
292,komsomolskiy,40.43,71.72,51.8,57,90,16.11,UZ,1604881232
293,bengkulu,-3.8,102.27,76.17,91,99,2.44,ID,1604881232
294,honningsvag,70.98,25.97,35.11,90,100,11.56,NO,1604881233
295,adrar,20.5,-10.07,81.46,15,44,7.14,MR,1604881233
296,balykshi,47.07,51.87,46.4,81,40,24.61,KZ,1604881233
297,usinsk,65.99,57.53,26.83,98,100,13.71,RU,1604881233
298,balkanabat,39.51,54.37,49.73,61,0,1.12,TM,1604881233
299,nanzhou,29.36,112.4,53.85,64,0,5.79,CN,1604881233
300,manta,-0.95,-80.73,75.2,78,75,10.29,EC,1604880982
301,koutsouras,35.03,25.95,66.0,61,1,15.01,GR,1604881233
302,kyshtovka,56.55,76.63,33.8,91,82,18.28,RU,1604881233
303,gat,31.61,34.76,64.99,82,0,2.24,IL,1604881234
304,ulladulla,-35.35,150.47,64.99,55,75,6.93,AU,1604881234
305,cabo san lucas,22.89,-109.91,82.0,65,5,12.75,MX,1604881203
306,naze,28.37,129.48,69.8,60,75,13.87,JP,1604881234
307,nouadhibou,20.93,-17.03,71.6,64,0,18.34,MR,1604881234
308,grand gaube,-20.01,57.66,72.0,83,2,5.01,MU,1604881234
309,noumea,-22.28,166.46,78.8,61,20,18.34,NC,1604881234
310,naryan-mar,67.67,53.09,28.78,98,96,9.22,RU,1604881234
311,cidreira,-30.18,-50.21,68.47,80,95,15.88,BR,1604881234
312,tocopilla,-22.09,-70.2,63.86,61,19,8.72,CL,1604881235
313,aquiraz,-3.9,-38.39,82.4,74,75,17.22,BR,1604881235
314,minjur,13.27,80.27,75.2,88,20,3.36,IN,1604881235
315,luau,-10.71,22.22,66.02,94,49,2.44,AO,1604881235
316,narsaq,60.92,-46.05,30.2,92,100,1.03,GL,1604881235
317,teya,60.38,92.63,37.87,78,100,13.78,RU,1604881235
318,machiques,10.06,-72.55,77.92,82,95,4.72,VE,1604881235
319,laizhou,37.17,119.92,44.49,54,0,6.82,CN,1604881236
320,negombo,7.21,79.84,75.2,94,20,5.82,LK,1604881236
321,abnub,27.27,31.15,62.6,59,0,9.17,EG,1604881236
322,bozhou,33.88,115.77,50.85,48,63,6.17,CN,1604881236
323,broken hill,-31.95,141.43,80.6,28,53,16.11,AU,1604881236
324,la ronge,55.1,-105.28,14.0,78,100,13.87,CA,1604881236
325,norman wells,65.28,-126.83,19.4,92,75,4.7,CA,1604881236
326,saint-francois,46.42,3.91,48.99,93,4,1.12,FR,1604881236
327,capitan bado,-23.27,-55.53,81.18,38,51,5.32,PY,1604881236
328,wollongong,-34.43,150.88,70.0,59,49,3.0,AU,1604881237
329,la reforma,25.08,-108.05,84.0,73,32,8.99,MX,1604881237
330,yakeshi,49.28,120.73,1.35,90,0,1.95,CN,1604881237
331,san luis,-33.3,-66.34,71.42,44,86,13.78,AR,1604881237
332,harper,4.38,-7.72,78.51,84,63,7.2,LR,1604881237
333,mar del plata,-38.0,-57.56,62.01,100,90,10.29,AR,1604881041
334,the valley,18.22,-63.06,82.4,78,20,12.75,AI,1604881237
335,rawson,-43.3,-65.1,67.55,58,99,18.63,AR,1604881237
336,quatre cocos,-20.21,57.76,73.4,88,40,13.94,MU,1604881259
337,baihar,22.1,80.55,55.22,47,0,2.66,IN,1604881259
338,kulhudhuffushi,6.62,73.07,82.85,76,69,10.8,MV,1604881259
339,wilmington,34.23,-77.94,72.0,73,1,6.93,US,1604881259
340,burnie,-41.07,145.92,61.0,52,84,13.0,AU,1604881191
341,kavaratti,10.57,72.64,83.37,74,0,6.67,IN,1604881259
342,nome,64.5,-165.41,30.99,83,0,4.0,US,1604881260
343,salalah,17.02,54.09,77.0,65,0,3.36,OM,1604881260
344,provideniya,64.38,-173.3,32.0,97,90,11.18,RU,1604881260
345,ndende,-2.4,11.36,72.55,97,100,2.64,GA,1604881260
346,mugur-aksy,50.35,90.5,22.21,87,51,6.78,RU,1604881260
347,kastamonu,41.5,33.67,39.45,79,0,0.67,TR,1604881260
348,thinadhoo,0.53,72.93,83.55,75,95,12.88,MV,1604881261
349,nizhniy kuranakh,58.84,125.49,-4.13,88,95,3.4,RU,1604881261
350,sanandaj,35.31,46.99,49.89,70,90,3.47,IR,1604881261
351,igarka,67.47,86.58,25.18,98,100,12.8,RU,1604881261
352,bardiyah,31.76,25.09,66.15,79,19,13.04,LY,1604881261
353,itaueira,-7.6,-43.03,79.2,61,4,5.32,BR,1604881262
354,kodinsk,58.69,99.18,32.94,93,80,5.97,RU,1604881262
355,mitsamiouli,-11.38,43.28,79.74,80,91,12.62,KM,1604881262
356,zima,53.92,102.04,28.94,95,9,6.85,RU,1604881262
357,sorland,67.67,12.69,44.83,68,99,31.21,NO,1604881262
358,hay river,60.82,-115.8,21.2,73,1,13.87,CA,1604881262
359,keffi,8.85,7.87,75.2,83,0,3.36,NG,1604881262
360,fortuna,40.6,-124.16,50.0,51,1,19.46,US,1604881263
361,shahreza,32.03,51.88,41.29,67,12,2.28,IR,1604881263
362,poshekhonye,58.5,39.14,32.16,93,0,10.16,RU,1604881263
363,omsukchan,62.53,155.8,-4.68,87,99,4.99,RU,1604881263
364,tonj,7.27,28.68,76.24,56,37,2.48,SS,1604881263
365,sioux lookout,50.1,-91.92,59.0,67,40,8.05,CA,1604881263
366,camana,-16.62,-72.71,64.4,75,27,6.22,PE,1604881263
367,nemuro,43.32,145.57,35.6,93,75,4.7,JP,1604881263
368,swan river,52.11,-101.27,19.4,92,100,23.04,CA,1604881264
369,jensen beach,27.25,-80.23,77.0,88,90,33.33,US,1604881264
370,port hedland,-20.32,118.57,82.4,48,0,10.29,AU,1604881042
371,alyangula,-13.85,136.42,87.8,66,75,6.93,AU,1604881264
372,balkhash,46.84,74.98,42.17,65,100,19.95,KZ,1604881264
373,evensk,61.95,159.23,9.9,88,100,12.86,RU,1604881264
374,klichka,50.45,118.0,7.25,91,0,1.32,RU,1604881264
375,ola,59.58,151.28,10.27,86,99,15.68,RU,1604881265
376,bathsheba,13.22,-59.52,78.8,88,75,17.22,BB,1604881265
377,tecoanapa,16.52,-98.75,81.79,76,41,6.24,MX,1604881265
378,taldan,53.67,124.8,2.17,88,0,5.26,RU,1604881265
379,yamada,39.47,141.95,46.76,52,0,20.11,JP,1604881265
380,pomabamba,-8.83,-77.47,53.26,69,55,4.21,PE,1604881265
381,izvestkovyy,48.98,131.55,10.13,85,40,7.54,RU,1604881266
382,mozarlandia,-14.74,-50.57,76.87,76,97,11.16,BR,1604881266
383,kpandae,8.47,-0.01,81.5,59,70,3.42,GH,1604881266
384,balaipungut,1.05,101.28,73.4,100,75,2.55,ID,1604881266
385,redmond,47.67,-122.12,46.0,46,0,1.01,US,1604881023
386,tokmak,47.25,35.71,45.66,88,0,5.99,UA,1604881266
387,kasongo-lunda,-6.47,16.82,71.2,93,97,1.43,CD,1604881266
388,qaqortoq,60.72,-46.03,30.2,92,100,5.17,GL,1604881266
389,birjand,32.87,59.22,44.6,28,0,9.17,IR,1604881267
390,sao jose da coroa grande,-8.9,-35.15,77.34,85,49,9.8,BR,1604881267
391,shellbrook,53.22,-106.4,15.8,85,90,17.22,CA,1604881107
392,pires do rio,-17.3,-48.28,72.68,74,100,8.12,BR,1604881267
393,waitati,-45.75,170.57,54.0,82,98,8.01,NZ,1604881267
394,saint george,37.1,-113.58,41.0,86,90,9.17,US,1604881203
395,pinsk,52.12,26.1,39.88,90,40,2.3,BY,1604881268
396,loreto,22.27,-101.97,67.3,29,32,5.84,MX,1604881268
397,swan hill,-35.34,143.55,78.94,38,11,14.18,AU,1604881268
398,pampierstad,-27.78,24.69,74.52,24,100,4.92,ZA,1604881268
399,hasanabad,36.55,61.05,48.2,93,100,4.7,IR,1604881268
400,portalegre,39.29,-7.43,57.99,95,16,1.01,PT,1604881268
401,wilhelmsburg,48.11,15.61,39.99,94,23,4.0,AT,1604881268
402,port-gentil,-0.72,8.78,77.0,94,40,4.7,GA,1604881269
403,riihimaki,60.74,24.78,37.0,100,0,6.93,FI,1604881269
404,lumeje,-11.55,20.78,70.05,75,69,5.1,AO,1604881269
405,japura,-0.32,102.35,75.22,85,100,1.05,ID,1604881269
406,concepcion,-36.83,-73.05,59.0,72,0,13.87,CL,1604881198
407,raudeberg,61.99,5.14,46.99,88,100,4.59,NO,1604881269
408,tungor,53.38,142.96,24.17,96,98,23.67,RU,1604881269
409,padang,-0.95,100.35,78.35,74,97,3.62,ID,1604881269
410,mackay,-21.15,149.2,75.2,73,75,19.46,AU,1604881265
411,port pirie,-33.18,138.02,77.0,33,95,4.7,AU,1604881270
412,karratha,-20.74,116.85,78.53,41,0,9.1,AU,1604881270
413,siavonga,-16.54,28.71,82.58,30,1,5.66,ZM,1604881270
414,ntungamo,-0.88,29.65,64.26,86,92,2.35,UG,1604881270
415,guiong,6.42,122.03,80.6,88,20,2.24,PH,1604881270
416,baruun-urt,46.68,113.28,26.13,89,2,8.95,MN,1604881270
417,picton,-34.18,150.6,70.0,62,16,1.99,AU,1604881271
418,petropavlovka,50.61,105.32,25.11,92,0,2.98,RU,1604881271
419,mosquera,4.71,-74.23,54.55,89,100,1.19,CO,1604881271
420,ostrovnoy,68.05,39.51,31.64,98,100,28.21,RU,1604881271
421,panyutyne,48.93,36.28,45.18,94,29,5.88,UA,1604881271
422,tessalit,20.2,1.01,70.9,27,28,10.16,ML,1604881271
423,tranas,58.04,14.98,46.4,87,16,5.82,SE,1604881143
424,hailin,44.58,129.42,23.36,83,12,10.16,CN,1604881272
425,ginda,30.69,78.49,47.88,44,0,4.72,IN,1604881272
426,bapatla,15.9,80.47,66.99,76,0,6.78,IN,1604881093
427,tezu,27.92,96.17,64.49,41,0,3.6,IN,1604881272
428,margate,51.38,1.39,57.0,91,99,1.99,GB,1604881272
429,kalemie,-5.95,29.19,72.37,82,65,2.57,CD,1604881272
430,stephenville,32.22,-98.2,69.8,64,1,14.83,US,1604881022
431,oktyabrskoye,43.06,44.74,28.4,92,0,2.24,RU,1604881272
432,pangkalanbuun,-2.68,111.62,78.8,88,80,1.3,ID,1604881273
433,port lincoln,-34.73,135.87,73.09,36,100,15.05,AU,1604881138
434,turkan,40.36,50.22,55.4,76,75,11.41,AZ,1604881273
435,bhola,22.68,90.65,71.42,79,0,8.08,BD,1604881273
436,rosario,-32.95,-60.64,73.99,60,0,2.24,AR,1604881031
437,araouane,18.9,-3.53,80.67,17,14,8.46,ML,1604881273
438,registro,-24.49,-47.84,64.02,95,0,2.13,BR,1604881086
439,tottori,35.5,134.23,50.0,93,40,4.7,JP,1604881130
440,inuvik,68.35,-133.72,19.4,79,100,5.82,CA,1604881242
441,belaya gora,68.53,146.42,-10.86,91,94,1.97,RU,1604881274
442,aksarka,66.56,67.8,20.12,98,99,7.58,RU,1604881274
443,uray,60.12,64.78,29.61,99,100,4.56,RU,1604881274
444,adet,11.26,37.49,57.42,83,95,3.56,ET,1604881274
445,katangli,51.71,143.23,24.3,89,100,18.37,RU,1604881274
446,virudunagar,9.6,77.97,73.69,86,95,7.49,IN,1604881274
447,trelew,-43.25,-65.31,70.52,52,98,17.69,AR,1604881109
448,grootfontein,-19.57,18.12,77.16,32,53,6.91,NA,1604881275
449,lumphat,13.49,106.98,70.86,87,85,1.63,KH,1604881275
450,the pas,53.83,-101.25,17.6,85,90,14.99,CA,1604881275
451,ulaangom,49.98,92.07,22.8,93,0,2.73,MN,1604881275
452,welkom,-27.99,26.71,69.01,72,99,15.01,ZA,1604881275
453,itarema,-2.92,-39.92,81.21,77,13,17.16,BR,1604881275
454,qasigiannguit,68.82,-51.19,14.0,61,100,11.41,GL,1604881275
455,agadir,30.42,-9.6,57.2,100,20,6.93,MA,1604881275
456,kohlu,29.9,69.25,48.96,48,0,1.68,PK,1604881275
457,bull savanna,17.89,-77.59,76.69,92,100,9.71,JM,1604881276
458,moranbah,-22.0,148.05,74.82,60,93,19.84,AU,1604881276
459,klaksvik,62.23,-6.59,48.2,93,100,18.34,FO,1604881276
460,bella vista,36.43,-94.23,69.8,73,90,10.29,US,1604881276
461,shirokiy,49.76,129.52,8.28,89,0,11.41,RU,1604881276
462,kaeo,-35.1,173.78,64.0,77,34,7.0,NZ,1604881276
463,buala,-8.14,159.59,86.72,61,44,5.99,SB,1604881276
464,djambala,-2.54,14.75,66.78,100,100,4.43,CG,1604881276
465,olinda,-8.01,-34.86,77.0,88,75,14.99,BR,1604881062
466,altay,47.87,88.12,38.16,63,62,7.07,CN,1604881277
467,bandarbeyla,9.49,50.81,77.32,83,40,16.87,SO,1604881277
468,surazh,53.02,32.39,39.52,96,32,6.69,RU,1604881277
469,kirakira,-10.45,161.92,84.13,74,38,2.77,SB,1604881277
470,hammerfest,70.66,23.68,35.6,93,75,29.97,NO,1604881145
471,lac du bonnet,50.25,-96.06,64.99,71,95,13.87,CA,1604881277
472,lowestoft,52.48,1.75,55.99,99,78,1.99,GB,1604881277
473,guangzhou,23.12,113.25,69.8,37,0,15.66,CN,1604881065
474,bojnurd,37.47,57.33,42.8,81,40,0.16,IR,1604881278
475,marang,5.21,103.21,77.0,94,40,3.36,MY,1604881023
476,hasaki,35.73,140.83,55.0,58,75,2.24,JP,1604881278
477,paso de patria,-27.25,-58.55,71.6,78,90,27.51,AR,1604881278
478,zlobin,45.29,14.65,53.01,70,8,1.01,HR,1604881278
479,sistranda,63.73,8.83,44.6,87,75,12.75,NO,1604881278
480,galeana,24.83,-100.07,66.0,25,35,1.99,MX,1604881278
481,port-cartier,50.03,-66.87,30.99,74,90,3.36,CA,1604881278
482,porto santo,33.07,-16.34,62.6,82,40,4.7,PT,1604881278
483,dunedin,-45.87,170.5,54.0,82,99,8.01,NZ,1604881169
484,gorin,51.2,136.67,13.87,79,88,7.43,RU,1604881279
485,nanortalik,60.14,-45.24,30.88,94,100,14.94,GL,1604881279
486,hamilton,39.18,-84.53,68.0,59,1,3.36,US,1604881003
487,morros,-9.45,-46.3,77.83,69,55,5.03,BR,1604881279
488,micheweni,-4.97,39.83,78.13,86,34,9.62,TZ,1604881279
489,mamallapuram,12.63,80.17,75.2,88,20,3.36,IN,1604881279
490,olafsvik,64.89,-23.71,41.63,77,99,19.51,IS,1604881279
491,mbini,1.57,9.61,75.33,88,82,3.6,GQ,1604881279
492,berbera,10.44,45.01,78.58,74,14,2.26,SO,1604881280
493,fort wellington,6.4,-57.6,80.29,83,96,13.47,GY,1604881280
494,mareeba,-17.0,145.43,81.0,69,90,11.41,AU,1604881280
495,alice springs,-23.7,133.88,82.4,13,0,4.7,AU,1604881159
496,brownsville,25.9,-97.5,82.4,73,1,9.17,US,1604881166
497,asau,46.43,26.4,43.0,100,0,2.24,RO,1604881280
498,garhakota,23.77,79.15,58.12,36,0,1.07,IN,1604881280
499,jiamusi,46.83,130.35,17.38,88,39,9.51,CN,1604881280
500,kabo,7.7,18.63,75.7,59,76,2.19,CF,1604881281
501,plouzane,48.38,-4.62,57.2,93,33,11.41,FR,1604881137
502,oranjestad,12.52,-70.03,80.6,78,20,4.7,AW,1604881061
503,prescott valley,34.59,-112.33,39.99,86,90,18.34,US,1604881281
504,baiyin,36.56,104.21,36.0,79,0,4.47,CN,1604881281
505,esperance,-33.87,121.9,71.6,56,0,17.22,AU,1604881281
506,pleshanovo,52.83,53.48,39.15,86,94,9.78,RU,1604881281
507,cairns,-16.92,145.77,81.0,69,90,11.41,AU,1604881161
508,plyussa,58.43,29.37,35.08,87,0,6.11,RU,1604881282
509,chapais,49.78,-74.85,35.6,100,20,3.36,CA,1604881282
510,haljala,59.43,26.26,36.5,84,0,7.96,EE,1604881282
511,camacupa,-12.02,17.48,62.11,87,82,3.76,AO,1604881282
512,san patricio,28.02,-97.52,75.2,78,20,13.87,US,1604881282
513,marsa matruh,31.35,27.25,64.4,88,40,4.34,EG,1604881282
514,union,40.63,-74.27,62.6,55,1,3.18,US,1604881282
515,buraydah,26.33,43.98,73.4,53,40,16.11,SA,1604881282
516,miramar,25.99,-80.23,77.0,100,90,25.28,US,1604881283
517,sydney mines,46.24,-60.22,30.0,92,5,2.24,CA,1604881283
518,matara,5.95,80.54,77.13,85,24,3.91,LK,1604881283
519,kamenka,51.32,42.77,46.0,95,100,13.35,RU,1604881283
520,merauke,-8.47,140.33,84.58,72,98,11.74,ID,1604881283
521,weligama,5.97,80.42,77.52,85,34,4.09,LK,1604881283
522,vila franca do campo,37.72,-25.43,57.2,82,40,2.24,PT,1604881283
523,at-bashi,41.17,75.81,35.89,54,56,2.8,KG,1604881283
524,halifax,44.65,-63.57,46.0,81,81,4.38,CA,1604881030
525,nioro,13.35,-15.75,78.08,63,0,5.95,GM,1604881284
526,nalut,30.33,10.85,56.5,61,0,8.52,LY,1604881284
527,dhidhdhoo,6.88,73.1,82.99,75,49,9.19,MV,1604881284
528,santiago,-33.46,-70.65,71.01,49,0,12.75,CL,1604881196
529,shuangcheng,45.35,126.28,19.4,79,0,6.71,CN,1604881284
530,ferrol,43.48,-8.24,59.0,87,40,5.82,ES,1604881284
531,fairbanks,64.84,-147.72,35.6,80,90,8.05,US,1604881284
532,biak,-0.91,122.88,81.73,64,74,8.1,ID,1604881284
533,suamico,44.63,-88.04,63.0,77,1,9.17,US,1604881284
534,kraliky,50.08,16.76,39.99,93,3,1.92,CZ,1604881285
535,kizhinga,51.85,109.91,23.97,95,33,3.76,RU,1604881285
536,sabha,27.04,14.43,58.95,73,0,8.28,LY,1604881285
537,benguela,-12.58,13.41,78.67,71,99,3.69,AO,1604881285
538,zyryanka,65.75,150.85,-3.53,92,97,6.76,RU,1604881285
539,estelle,29.85,-90.11,73.99,94,90,11.41,US,1604881285
540,myaundzha,63.05,147.19,-5.85,85,100,3.42,RU,1604881285
541,kawambwa,-9.79,29.08,67.14,65,11,3.98,ZM,1604881285
542,belle fourche,44.67,-103.85,30.2,74,1,10.29,US,1604881281
543,manado,1.49,124.85,82.4,74,20,1.12,ID,1604881286
544,seddon,-37.81,144.89,77.0,46,0,17.22,AU,1604881286
545,ano mera,37.45,25.4,63.0,82,0,16.11,GR,1604881286
546,los llanos de aridane,28.66,-17.92,66.2,68,0,6.93,ES,1604881286
547,beloha,-25.17,45.05,77.16,55,0,11.59,MG,1604881286
548,nelson bay,-32.72,152.15,68.0,55,75,10.29,AU,1604881264
549,villamontes,-21.25,-63.5,89.15,27,50,2.84,BO,1604881287
550,san andres,12.58,-81.7,82.44,76,90,5.3,CO,1604881101
551,guangyuan,32.44,105.82,55.99,83,27,1.86,CN,1604881287
552,kristiinankaupunki,62.27,21.38,45.18,73,24,16.31,FI,1604881287
553,kuytun,54.34,101.5,27.46,96,25,6.73,RU,1604881287
554,murgab,37.5,61.97,50.0,87,40,4.41,TM,1604881287
555,kabansk,52.05,106.65,15.8,92,0,5.77,RU,1604881287
556,dalvik,65.97,-18.53,30.2,80,0,6.93,IS,1604881288
557,nhulunbuy,-12.23,136.77,87.8,66,40,19.46,AU,1604881288
558,hanko,59.83,22.95,46.0,74,0,10.0,FI,1604881288
559,lorengau,-2.02,147.27,84.97,64,73,2.24,PG,1604881288
560,yulara,-25.24,130.99,82.4,15,6,11.41,AU,1604881288
561,yumen,40.28,97.2,33.33,63,0,7.25,CN,1604881288
562,mangrol,21.12,70.12,76.59,48,0,5.97,IN,1604881288
563,arrecife,28.96,-13.55,66.2,77,20,2.24,ES,1604881288
